{"type": "FeatureCollection", "features": [{"type": "Feature", "property": {"name": "2F Beer", "address": "2F Nguy\u1ec5n Th\u00e0nh \u00dd, \u0110a Kao"}, "geometry": {"type": "Point", "coordinates": [106.697451, 10.789676]}, "properties": {}}, {"type": "Feature", "property": {"name": "DOHO Beer Garden", "address": "16A L\u00ea H\u1ed3ng Phong, Ph\u01b0\u1eddng 12"}, "geometry": {"type": "Point", "coordinates": [106.671993, 10.773954]}, "properties": {}}, {"type": "Feature", "property": {"name": "Lananh Beer Restaurant", "address": "291 C\u00e1ch M\u1ea1ng Th\u00e1ng T\u00e1m, Ph\u01b0\u1eddng 12"}, "geometry": {"type": "Point", "coordinates": [106.678415, 10.779129]}, "properties": {}}, {"type": "Feature", "property": {"name": "Nh\u00e0 h\u00e0ng Bia th\u1ee7 c\u00f4ng Saigon Craft Beer", "address": "305/1A \u0110. L\u00ea V\u0103n S\u1ef9, Ph\u01b0\u1eddng 1"}, "geometry": {"type": "Point", "coordinates": [106.666957, 10.79616]}, "properties": {}}, {"type": "Feature", "property": {"name": "THE ROPE - Craft Beer Restaurant", "address": "H\u1ebbm 135/37 Nguy\u1ec5n H\u1eefu C\u1ea3nh, Ph\u01b0\u1eddng 22"}, "geometry": {"type": "Point", "coordinates": [106.717274, 10.796603]}, "properties": {}}, {"type": "Feature", "property": {"name": "Hoa Vi\u00ean Brauhaus Minh Khai", "address": "10 H\u1ebbm 18 Bis Nguy\u1ec5n Th\u1ecb Minh Khai, \u0110a Kao"}, "geometry": {"type": "Point", "coordinates": [106.700156, 10.785201]}, "properties": {}}, {"type": "Feature", "property": {"name": "Nh\u00e0 H\u00e0ng Bia T\u01b0\u01a1i Ti\u1ec7p Jodee Beer", "address": "198 Ho\u00e0ng V\u0103n Th\u1ee5, Ph\u01b0\u1eddng 9"}, "geometry": {"type": "Point", "coordinates": [106.672976, 10.799824]}, "properties": {}}, {"type": "Feature", "property": {"name": "Bia \u0110\u1ee9c Paderborner", "address": "328 Ph\u1ea1m V\u0103n \u0110\u1ed3ng, Ph\u01b0\u1eddng 1"}, "geometry": {"type": "Point", "coordinates": [106.69145, 10.819577]}, "properties": {}}, {"type": "Feature", "property": {"name": "Nh\u00e0 h\u00e0ng bia G8", "address": "13 \u0110\u01b0\u1eddng s\u1ed1 7, Th\u1ea3o \u0110i\u1ec1n"}, "geometry": {"type": "Point", "coordinates": [106.733873, 10.798752]}, "properties": {}}, {"type": "Feature", "property": {"name": "Nh\u00e0 H\u00e0ng Bia \u0110\u1ee9c Bit Garden", "address": "231 V\u00f5 V\u0103n Ki\u1ec7t, Ph\u01b0\u1eddng C\u00f4 Giang"}, "geometry": {"type": "Point", "coordinates": [106.695231, 10.760768]}, "properties": {}}, {"type": "Feature", "property": {"name": "Bia t\u01b0\u01a1i \u0110\u1ee9c Ph\u00fac An Khang", "address": "01 Ph\u1ea1m Vi\u1ebft Ch\u00e1nh, Ph\u01b0\u1eddng Nguy\u1ec5n C\u01b0 Trinh"}, "geometry": {"type": "Point", "coordinates": [106.682058, 10.765199]}, "properties": {}}, {"type": "Feature", "property": {"name": "V\u01b0\u01a1ng Qu\u1ed1c Bia B\u1ec9 Beer & Barrel", "address": "12 L\u00ea Qu\u00fd \u0110\u00f4n, Ph\u01b0\u1eddng 6"}, "geometry": {"type": "Point", "coordinates": [106.691189, 10.781132]}, "properties": {}}, {"type": "Feature", "property": {"name": "Nh\u00e0 H\u00e0ng Beer T\u00f4", "address": "136 Nguy\u1ec5n Th\u01b0\u1ee3ng Hi\u1ec1n, Ph\u01b0\u1eddng 4"}, "geometry": {"type": "Point", "coordinates": [106.684749, 10.773107]}, "properties": {}}, {"type": "Feature", "property": {"name": "Beer 4000 - Qu\u00e1n 171", "address": "171 Cao Th\u1eafng, Ph\u01b0\u1eddng 11"}, "geometry": {"type": "Point", "coordinates": [106.678251, 10.773355]}, "properties": {}}, {"type": "Feature", "property": {"name": "Tan Lap Restaurant Coffee and Beer", "address": "276 L\u00ea Th\u00e1nh T\u00f4n, Ph\u01b0\u1eddng B\u1ebfn Th\u00e0nh"}, "geometry": {"type": "Point", "coordinates": [106.695437, 10.771964]}, "properties": {}}, {"type": "Feature", "property": {"name": "Bier Hause - Nh\u00e0 h\u00e0ng Beer \u0110\u1ee9c", "address": "40 Ho\u00e0ng Qu\u1ed1c Vi\u1ec7t, Ph\u00fa M\u1ef9"}, "geometry": {"type": "Point", "coordinates": [106.740428, 10.71381]}, "properties": {}}, {"type": "Feature", "property": {"name": "S\u01b0\u1eddn C\u00e2y N\u01b0\u1edbng v\u00e0 Beer H\u1ed3 Bi\u1ec3u Ch\u00e1nh", "address": "3A H\u1ed3 Bi\u1ec3u Ch\u00e1nh, Ph\u01b0\u1eddng 12"}, "geometry": {"type": "Point", "coordinates": [106.676856, 10.793896]}, "properties": {}}, {"type": "Feature", "property": {"name": "Qu\u00e1n V\u01b0\u1eddn Bia", "address": "2 Nguy\u1ec5n Th\u00e0nh \u00dd, \u0110a Kao"}, "geometry": {"type": "Point", "coordinates": [106.697317, 10.789345]}, "properties": {}}, {"type": "Feature", "property": {"name": "BEER +", "address": "101a B\u1edd Bao T\u00e2n Th\u1eafng, P"}, "geometry": {"type": "Point", "coordinates": [106.618421, 10.800925]}, "properties": {}}, {"type": "Feature", "property": {"name": "Qu\u00e1n bia \u0110\u1ee9c Kent", "address": "648 Tr\u01b0\u1eddng Sa, Ph\u01b0\u1eddng 7"}, "geometry": {"type": "Point", "coordinates": [106.69028, 10.79609]}, "properties": {}}, {"type": "Feature", "property": {"name": "qu\u00e1n food and beer", "address": "6 Ng\u00f4 Th\u1eddi Nhi\u1ec7m, Ph\u01b0\u1eddng 7"}, "geometry": {"type": "Point", "coordinates": [106.690324, 10.781323]}, "properties": {}}, {"type": "Feature", "property": {"name": "X Beer Garden", "address": "85 C\u00e1ch M\u1ea1ng Th\u00e1ng T\u00e1m, Ph\u01b0\u1eddng Ph\u1ea1m Ng\u0169 L\u00e3o"}, "geometry": {"type": "Point", "coordinates": [106.69147, 10.772339]}, "properties": {}}, {"type": "Feature", "property": {"name": "Road Chilling Beer", "address": "37 L\u00ea V\u0103n Duy\u1ec7t, Ph\u01b0\u1eddng 3"}, "geometry": {"type": "Point", "coordinates": [106.694348, 10.795438]}, "properties": {}}, {"type": "Feature", "property": {"name": "V\u01af\u1edcN BEER TEXAS", "address": "79 \u0110\u01b0\u1eddng s\u1ed1 23, Hi\u1ec7p B\u00ecnh Ch\u00e1nh"}, "geometry": {"type": "Point", "coordinates": [106.728413, 10.826885]}, "properties": {}}, {"type": "Feature", "property": {"name": "Nh\u00e0 Kho Food & Beer", "address": "101 \u0110\u01b0\u1eddng Mai Th\u1ecb L\u1ef1u, \u0110a Kao"}, "geometry": {"type": "Point", "coordinates": [106.6976, 10.792375]}, "properties": {}}, {"type": "Feature", "property": {"name": "Mr Beer b\u00f9i th\u1ecb xu\u00e2n (Qu\u1eadn 1)", "address": "56-58 B\u00f9i Th\u1ecb Xu\u00e2n, Ph\u01b0\u1eddng Ph\u1ea1m Ng\u0169 L\u00e3o"}, "geometry": {"type": "Point", "coordinates": [106.689805, 10.771373]}, "properties": {}}, {"type": "Feature", "property": {"name": "Nh\u00e0 h\u00e0ng S\u01b0\u1eddn C\u00e2y", "address": "77 C\u1ed9ng H\u00f2a, Ph\u01b0\u1eddng 4"}, "geometry": {"type": "Point", "coordinates": [106.655431, 10.80093]}, "properties": {}}, {"type": "Feature", "property": {"name": "Bacchus Beer", "address": "219E Ph\u1ea1m Vi\u1ebft Ch\u00e1nh, Ph\u01b0\u1eddng Nguy\u1ec5n C\u01b0 Trinh"}, "geometry": {"type": "Point", "coordinates": [106.683806, 10.767]}, "properties": {}}, {"type": "Feature", "property": {"name": "Nh\u00e0 H\u00e0ng Bia \u0110\u1ee9c - Little Germany VN", "address": "37 \u0110\u01b0\u1eddng s\u1ed1 2, Khu d\u00e2n c\u01b0 D\u01b0\u01a1ng H\u1ed3ng, Nguy\u1ec5n V\u0103n Linh, B\u00ecnh H\u01b0ng"}, "geometry": {"type": "Point", "coordinates": [106.662053, 10.72258]}, "properties": {}}, {"type": "Feature", "property": {"name": "BAR AVATAR BEER CLUB", "address": "L14 ,\u0111\u01b0\u1eddng C\u1ea7u Ho\u00e0ng Hoa Th\u00e1m ,KDC Mi\u1ebfu N\u1ed5i ,Ph\u01b0\u1eddng 3, Ph\u01b0\u1eddng 7"}, "geometry": {"type": "Point", "coordinates": [106.693052, 10.795248]}, "properties": {}}, {"type": "Feature", "property": {"name": "B\u1ed1c - Kitchen & Craft Beer Pub", "address": "74/3 Hai B\u00e0 Tr\u01b0ng, B\u1ebfn Ngh\u00e9"}, "geometry": {"type": "Point", "coordinates": [106.703836, 10.778091]}, "properties": {}}, {"type": "Feature", "property": {"name": "Big Pig BBQ & Beer - Truong Son", "address": "46 Tr\u01b0\u1eddng S\u01a1n, Ph\u01b0\u1eddng 2"}, "geometry": {"type": "Point", "coordinates": [106.665037, 10.80997]}, "properties": {}}, {"type": "Feature", "property": {"name": "Sky Garden BBQ & CRAFT BEER", "address": "504 \u0110\u01b0\u1eddng 3 Th\u00e1ng 2, Ph\u01b0\u1eddng 14"}, "geometry": {"type": "Point", "coordinates": [106.665335, 10.766916]}, "properties": {}}, {"type": "Feature", "property": {"name": "Brothers Beer Garden", "address": "30 Tr\u1ea7n Qu\u1ed1c Th\u1ea3o, Ph\u01b0\u1eddng 6"}, "geometry": {"type": "Point", "coordinates": [106.689904, 10.780091]}, "properties": {}}, {"type": "Feature", "property": {"name": "Mr Beer v\u00f5 v\u0103n t\u1ea7n (Qu\u1eadn 3)", "address": "62 V\u00f5 V\u0103n T\u1ea7n, Ph\u01b0\u1eddng 6"}, "geometry": {"type": "Point", "coordinates": [106.690354, 10.776759]}, "properties": {}}, {"type": "Feature", "property": {"name": "Qu\u00e1n Bia 95", "address": "234 B\u00f9i \u0110\u00ecnh Tu\u00fd, Ph\u01b0\u1eddng 12"}, "geometry": {"type": "Point", "coordinates": [106.701561, 10.807659]}, "properties": {}}, {"type": "Feature", "property": {"name": "3Tbeer - Cold beer & Hot food", "address": "148 \u0110\u01b0\u1eddng Nguy\u1ec5n V\u0103n Th\u1ee7, \u0110a Kao"}, "geometry": {"type": "Point", "coordinates": [106.697014, 10.787939]}, "properties": {}}, {"type": "Feature", "property": {"name": "ROAD CHILLING BEER", "address": "33 L\u00ea V\u0103n Duy\u1ec7t, Ph\u01b0\u1eddng 1"}, "geometry": {"type": "Point", "coordinates": [106.694364, 10.795492]}, "properties": {}}, {"type": "Feature", "property": {"name": "Bia tuoi", "address": "\u0110\u01b0\u1eddng Nguy\u1ec5n V\u0103n Th\u1ee7, \u0110a Kao"}, "geometry": {"type": "Point", "coordinates": [106.696885, 10.786754]}, "properties": {}}, {"type": "Feature", "property": {"name": "H\u1eacU coffee & beer", "address": "680 Tr\u01b0\u1eddng Sa, Ph\u01b0\u1eddng 17"}, "geometry": {"type": "Point", "coordinates": [106.682568, 10.792486]}, "properties": {}}, {"type": "Feature", "property": {"name": "World Beer", "address": "2a4 Nguy\u1ec5n Th\u1ecb Minh Khai, \u0110a Kao"}, "geometry": {"type": "Point", "coordinates": [106.705462, 10.790909]}, "properties": {}}, {"type": "Feature", "property": {"name": "Beer Street", "address": "Ph\u01b0\u1eddng 5"}, "geometry": {"type": "Point", "coordinates": [106.689475, 10.826759]}, "properties": {}}, {"type": "Feature", "property": {"name": "S\u01b0\u1eddn C\u00e2y N\u01b0\u1edbng v\u00e0 Beer Phan \u0110\u0103ng L\u01b0u", "address": "128C Phan \u0110\u0103ng L\u01b0u, Ph\u01b0\u1eddng 3"}, "geometry": {"type": "Point", "coordinates": [106.683333, 10.802316]}, "properties": {}}, {"type": "Feature", "property": {"name": "Nh\u00e0 h\u00e0ng S\u01b0\u1eddn C\u00e2y", "address": "99 Kinh D\u01b0\u01a1ng V\u01b0\u01a1ng, Ph\u01b0\u1eddng 12"}, "geometry": {"type": "Point", "coordinates": [106.629422, 10.74988]}, "properties": {}}, {"type": "Feature", "property": {"name": "L\u00e3o Tr\u01b0 BBQ - Street Food BBQ & Craft Beer", "address": "14 Song H\u00e0nh, Th\u1ea3o \u0110i\u1ec1n"}, "geometry": {"type": "Point", "coordinates": [106.734485, 10.799332]}, "properties": {}}, {"type": "Feature", "property": {"name": "Beer House", "address": "L\u00ea V\u0103n Thi\u00eam, T\u00e2n Phong"}, "geometry": {"type": "Point", "coordinates": [106.709813, 10.731084]}, "properties": {}}, {"type": "Feature", "property": {"name": "B\u1ed0C Food & Beer Garden", "address": "100 Ung V\u0103n Khi\u00eam, Ph\u01b0\u1eddng 25"}, "geometry": {"type": "Point", "coordinates": [106.717544, 10.807144]}, "properties": {}}, {"type": "Feature", "property": {"name": "Gammer Beer", "address": "107 Pasteur, B\u1ebfn Ngh\u00e9"}, "geometry": {"type": "Point", "coordinates": [106.696357, 10.779716]}, "properties": {}}, {"type": "Feature", "property": {"name": "Urban Basement - Craft Beer & Kitchen", "address": "137 L\u00fd T\u1ef1 Tr\u1ecdng, Ph\u01b0\u1eddng B\u1ebfn Th\u00e0nh"}, "geometry": {"type": "Point", "coordinates": [106.696944, 10.773611]}, "properties": {}}, {"type": "Feature", "property": {"name": "Qu\u00e1n Bia Tuy\u1ebft 3", "address": "468 L\u00ea V\u0103n Vi\u1ec7t, T\u0103ng Nh\u01a1n Ph\u00fa A"}, "geometry": {"type": "Point", "coordinates": [106.798479, 10.846288]}, "properties": {}}]}